,City,Cloudiness,Country,Date,Humidity,Lat,Lng,Max Temp,Wind Speed
0,Newport,40,GB,1580270326,80,51.59,-3.0,39.9,16.11
1,Dikson,100,RU,1580270486,95,73.51,80.55,-18.06,14.38
2,Beira,0,MZ,1580270403,78,-19.84,34.84,81.07,14.5
3,Port Alfred,60,ZA,1580270610,85,-33.59,26.89,66.99,5.01
4,Pillaro,20,EC,1580270621,87,-1.17,-78.53,45.21,5.82
5,Thompson,90,CA,1580270622,85,55.74,-97.86,10.4,8.05
6,Barrow,1,US,1580270524,74,71.29,-156.79,-27.4,3.36
7,Tiksi,99,RU,1580270624,87,71.69,128.87,-15.88,6.51
8,Kushiro,75,JP,1580270625,80,42.98,144.37,30.2,9.17
9,Pangnirtung,7,CA,1580270495,88,66.15,-65.71,-28.75,4.25
10,Ushuaia,75,AR,1580270628,81,-54.8,-68.3,42.8,28.86
11,Kapaa,1,US,1580270629,61,22.08,-159.32,75.43,3.36
12,Longyearbyen,40,SJ,1580270484,77,78.22,15.64,6.8,16.11
13,Airai,55,TL,1580270631,49,-8.93,125.41,86.11,3.89
14,Hermanus,89,ZA,1580270483,97,-34.42,19.23,64.0,3.0
15,Atuona,32,PF,1580270633,79,-9.8,-139.03,80.91,13.62
16,Mahebourg,75,MU,1580270635,94,-20.41,57.7,73.13,1.9
17,Castro,33,BR,1580270636,99,-24.79,-50.01,63.79,5.88
18,Mar del Plata,100,AR,1580270468,60,-38.0,-57.56,68.56,6.93
19,Kaka,0,TM,1580270638,75,37.35,59.61,34.56,8.88
20,Bluff,100,NZ,1580270639,89,-46.6,168.33,55.0,11.99
21,Zavolzhye,90,RU,1580270640,92,56.64,43.39,21.42,6.71
22,Lorengau,76,PG,1580270642,79,-2.02,147.27,84.0,14.38
23,Kodiak,90,US,1580270491,73,57.79,-152.41,24.8,23.04
24,Hilo,20,US,1580270347,57,19.73,-155.09,71.65,5.82
25,Busselton,32,AU,1580270645,28,-33.65,115.33,82.09,7.54
26,Puerto Ayora,39,EC,1580270498,9,-0.74,-90.35,73.99,3.0
27,Albany,90,US,1580270647,79,42.6,-73.97,28.29,10.29
28,Vaini,75,TO,1580270648,94,-21.2,-175.2,78.8,5.82
29,Fortuna,90,US,1580270650,93,40.6,-124.16,48.87,3.36
30,Acarau,99,BR,1580270651,89,-2.89,-40.12,76.08,2.46
31,Nome,1,US,1580270652,62,64.5,-165.41,-17.9,5.28
32,Tezu,0,IN,1580270653,39,27.92,96.17,61.2,2.93
33,Fairbanks,20,US,1580270632,73,64.84,-147.72,-25.89,4.7
34,Meulaboh,88,ID,1580270656,80,4.14,96.13,79.54,5.12
35,Koslan,0,RU,1580270657,96,63.46,48.9,-10.37,4.32
36,Ponta do Sol,20,PT,1580270658,72,32.67,-17.1,56.12,6.93
37,Lalmohan,74,BD,1580270659,56,22.34,90.74,71.31,3.09
38,Voznesenye,96,RU,1580270660,87,61.01,35.48,19.47,9.01
39,Esperance,75,AU,1580270662,69,-33.87,121.9,75.2,8.05
40,Staunton,75,US,1580270534,80,38.15,-79.07,32.36,4.7
41,Lazo,100,RU,1580270664,80,43.38,133.9,24.22,5.79
42,East London,0,ZA,1580270404,55,-33.02,27.91,64.4,6.93
43,Colares,75,PT,1580270666,100,38.8,-9.45,58.1,10.29
44,Chui,0,UY,1580270668,85,-33.7,-53.46,68.63,13.29
45,Jining,0,CN,1580270669,46,35.41,116.58,42.93,7.61
46,Tateyama,20,JP,1580270504,63,34.98,139.87,63.14,13.87
47,Port Lincoln,0,AU,1580270671,25,-34.73,135.87,89.6,13.87
48,Cape Town,75,ZA,1580270449,100,-33.93,18.42,65.59,8.05
49,Constitucion,10,CL,1580270674,81,-35.33,-72.42,53.24,7.31
50,Hobart,40,AU,1580270425,34,-42.88,147.33,79.57,11.41
51,Bilibino,100,RU,1580270676,99,68.05,166.44,-7.35,4.72
52,Bethel,90,US,1580270454,74,41.37,-73.41,33.64,8.05
53,Uddevalla,100,SE,1580270678,100,58.35,11.94,39.15,8.05
54,Rikitea,100,PF,1580270679,78,-23.12,-134.97,79.79,6.22
55,Klaksvik,0,FO,1580270503,65,62.23,-6.59,32.0,3.36
56,Rorvik,100,NO,1580270682,72,64.86,11.24,34.0,3.0
57,Punta Arenas,40,CL,1580270639,81,-53.15,-70.92,44.29,23.04
58,Alta Floresta,100,BR,1580270392,96,-9.88,-56.09,69.8,1.92
59,Elban,100,RU,1580270685,92,50.1,136.51,16.34,7.16
60,Carnarvon,40,AU,1580270686,74,-24.87,113.63,80.6,19.46
61,Laas,90,IT,1580270687,85,46.62,10.7,26.04,5.82
62,Cayenne,75,GF,1580270689,83,4.93,-52.33,80.6,6.93
63,Nikolskoye,75,RU,1580270690,92,59.7,30.79,30.07,11.18
64,Dukat,100,RU,1580270691,96,62.55,155.55,-15.34,5.1
65,Peno,100,RU,1580270692,95,56.93,32.74,30.11,7.56
66,Arraial do Cabo,32,BR,1580270693,90,-22.97,-42.03,77.77,5.01
67,Vostok,4,RU,1580270694,84,46.49,135.88,21.27,3.8
68,Lima,75,PE,1580270424,88,-12.04,-77.03,75.2,9.17
69,Campoverde,75,PE,1580270697,74,-8.48,-74.81,86.0,5.82
70,George Town,20,MY,1580270509,59,5.41,100.34,88.43,10.29
71,Thabazimbi,0,ZA,1580270699,98,-24.59,27.41,57.0,2.66
72,Bredasdorp,100,ZA,1580270507,88,-34.53,20.04,65.25,4.81
73,Sao Jose da Coroa Grande,44,BR,1580270701,72,-8.9,-35.15,80.98,11.61
74,Tuatapere,100,NZ,1580270703,89,-46.13,167.68,55.0,11.99
75,Butaritari,100,KI,1580270704,78,3.07,172.79,83.08,10.54
76,Tasiilaq,100,GL,1580270705,80,65.61,-37.64,30.2,23.04
77,San Cristobal,40,VE,1580270706,83,7.77,-72.22,77.0,2.24
78,Labuhan,92,ID,1580270707,66,-6.88,112.21,87.22,2.73
79,Cabo San Lucas,5,MX,1580270709,77,22.89,-109.91,63.32,4.7
80,Narsaq,38,GL,1580270710,78,60.92,-46.05,10.4,4.7
81,Avarua,84,CK,1580270671,88,-21.21,-159.78,78.8,9.17
82,Alvdal,90,NO,1580270712,92,62.11,10.63,30.2,10.29
83,Mastic Beach,90,US,1580270713,59,40.77,-72.85,35.33,9.17
84,Qaanaaq,100,GL,1580270714,92,77.48,-69.36,-13.77,5.79
85,Port Blair,100,IN,1580270510,64,11.67,92.75,78.01,10.78
86,Si Racha,20,TH,1580270717,55,13.17,100.93,85.32,4.7
87,Jamestown,90,US,1580270718,86,42.1,-79.24,28.24,11.41
88,Taseyevo,100,RU,1580270719,92,57.22,94.9,20.3,5.08
89,Oriximina,92,BR,1580270720,77,-1.77,-55.87,79.56,2.75
90,Wasilla,20,US,1580270442,71,61.58,-149.44,7.18,8.05
91,Yoichi,90,JP,1580270723,86,43.2,140.77,32.67,5.82
92,Koungou,100,YT,1580270724,94,-12.73,45.2,78.8,12.75
93,Kaitangata,100,NZ,1580270489,74,-46.28,169.85,62.01,20.0
94,Hualmay,100,PE,1580270726,80,-11.1,-77.61,71.01,3.65
95,Hithadhoo,76,MV,1580270727,78,-0.6,73.08,81.12,15.68
96,Opuwo,78,,1580270729,69,-18.06,13.84,69.93,2.57
97,Aksha,28,RU,1580270730,90,50.28,113.29,5.04,2.39
98,Cherskiy,100,RU,1580270731,96,68.75,161.3,-22.68,5.7
99,Natchitoches,90,US,1580270732,100,31.77,-93.13,50.74,5.82
100,Yellowknife,90,CA,1580270486,83,62.46,-114.35,-4.47,4.7
101,Chokurdakh,100,RU,1580270638,97,70.63,147.92,-19.61,10.6
102,San Andres,20,CO,1580270736,74,12.58,-81.7,78.8,3.36
103,Sri Aman,75,MY,1580270737,83,1.24,111.46,84.13,3.36
104,Myhove,40,UA,1580270738,92,48.16,25.38,37.4,6.71
105,Christchurch,0,NZ,1580270731,32,-43.53,172.63,81.93,16.11
106,New Norfolk,40,AU,1580270497,34,-42.78,147.06,79.47,11.41
107,Takoradze,59,GH,1580270741,90,4.88,-1.76,76.03,1.66
108,Nanortalik,69,GL,1580270743,66,60.14,-45.24,24.4,14.88
109,Shelburne,75,CA,1580270744,74,44.08,-80.2,25.7,10.29
110,Sitka,90,US,1580270512,80,57.05,-135.33,38.37,17.22
111,Bambous Virieux,75,MU,1580270513,94,-20.34,57.76,73.29,1.97
112,Cockburn Town,0,TC,1580270460,70,21.46,-71.14,77.67,8.41
113,Tukums,90,LV,1580270748,93,56.97,23.16,37.4,8.05
114,Sioux Lookout,20,CA,1580270750,84,50.1,-91.92,3.45,3.36
115,Saskylakh,100,RU,1580270751,98,71.92,114.08,-10.16,7.76
116,Port Macquarie,90,AU,1580270752,58,-31.43,152.92,88.23,14.99
117,Tabou,61,CI,1580270753,91,4.42,-7.35,76.32,1.25
118,Tuktoyaktuk,90,CA,1580270506,75,69.45,-133.04,-18.4,5.82
119,Saint-Philippe,10,RE,1580270755,57,-21.36,55.77,75.36,8.05
120,Broome,90,US,1580270756,100,42.25,-75.83,27.55,7.0
121,Sisimiut,100,GL,1580270758,98,66.94,-53.67,-6.16,3.4
122,Upernavik,74,GL,1580270678,94,72.79,-56.15,-14.35,7.23
123,Anadyr,75,RU,1580270669,91,64.75,177.48,1.22,6.71
124,High River,20,CA,1580270761,54,50.58,-113.87,25.5,4.7
125,Mahajanga,40,MG,1580270762,94,-15.72,46.32,77.0,8.1
126,Grand-Santi,61,GF,1580270764,95,4.25,-54.38,73.6,3.78
127,Aksu,0,CN,1580270765,64,41.12,80.26,23.76,2.55
128,Clyde River,1,CA,1580270689,74,70.47,-68.59,-23.8,4.7
129,Brandon,1,US,1580270767,71,27.94,-82.29,54.75,11.01
130,Lebu,0,CL,1580270768,66,-37.62,-73.65,53.08,10.63
131,Sao Felix do Xingu,83,BR,1580270769,97,-6.64,-51.99,71.04,1.52
132,Bathsheba,75,BB,1580270771,78,13.22,-59.52,78.8,17.22
133,La Providencia,5,MX,1580270772,36,28.72,-111.58,60.28,6.93
134,Urumqi,75,CN,1580270773,85,43.8,87.6,12.2,2.24
135,Faanui,81,PF,1580270644,70,-16.48,-151.75,83.43,5.01
136,Joshimath,100,IN,1580270775,98,30.57,79.57,28.54,5.32
137,Kalabo,91,ZM,1580270776,94,-14.97,22.68,66.49,3.11
138,Maniitsoq,98,GL,1580270649,62,65.42,-52.9,7.65,6.15
139,Yulara,40,AU,1580270779,22,-25.24,130.99,102.2,17.22
140,Mount Gambier,0,AU,1580270780,17,-37.83,140.77,89.6,9.17
141,Kankakee,90,US,1580270781,80,41.15,-87.87,30.0,3.4
142,Saint George's,20,GD,1580270717,83,12.06,-61.75,78.8,5.82
143,Ust-Nera,81,RU,1580270783,99,64.57,143.2,-40.23,3.27
144,Pevek,100,RU,1580270785,98,69.7,170.31,-11.33,12.73
145,Taoudenni,0,ML,1580270786,29,22.68,-3.98,63.16,10.87
146,Bambanglipuro,100,ID,1580270787,65,-7.95,110.28,87.37,1.03
147,Zamania,0,IN,1580270788,76,25.43,83.57,61.0,7.85
148,Isangel,90,VU,1580270501,66,-19.55,169.27,86.0,4.7
149,Traverse City,90,US,1580270656,79,44.76,-85.62,26.71,8.14
150,Iqaluit,5,CA,1580270723,67,63.75,-68.51,-27.18,14.99
151,Bengkulu,100,ID,1580270612,94,-3.8,102.27,72.45,13.62
152,Kloulklubed,75,PW,1580270794,70,7.04,134.26,86.0,6.93
153,Yatou,77,CN,1580270795,70,37.15,122.38,37.71,16.15
154,Belmonte,75,BR,1580270796,88,-15.86,-38.88,78.8,2.24
155,Camopi,61,GF,1580270797,98,3.17,-52.32,72.36,2.51
156,Noumea,79,NC,1580270528,38,-22.28,166.46,88.68,16.11
157,Mataura,96,NZ,1580270800,89,-46.19,168.86,55.0,11.99
158,Arrondissement de Muret,40,FR,1580270801,86,43.33,1.25,42.82,4.7
159,Mata,100,PT,1580270802,95,40.68,-7.46,50.4,3.78
160,Vao,16,NC,1580270765,72,-22.67,167.48,77.29,12.66
161,Wanning,33,CN,1580270804,68,18.8,110.4,65.08,9.73
162,Kavieng,25,PG,1580270806,75,-2.57,150.8,84.22,6.96
163,Sao Joao da Barra,100,BR,1580270807,92,-21.64,-41.05,75.63,11.72
164,Berlevag,65,NO,1580270550,67,70.86,29.09,24.1,23.0
165,Kuytun,90,RU,1580270809,96,54.34,101.5,6.22,4.56
166,Yilan,75,TW,1580270810,66,24.76,121.75,54.48,2.24
167,Yangi Marg`ilon,0,UZ,1580270811,74,40.43,71.72,30.52,4.7
168,Faya,40,SA,1580270813,87,18.39,42.45,52.66,12.75
169,Sokoto,9,NG,1580270814,10,13.06,5.24,64.85,10.16
170,Te Anau,76,NZ,1580270815,74,-45.42,167.72,57.11,9.86
171,Sompeta,0,IN,1580270816,77,18.93,84.6,75.33,5.32
172,Mandalgovi,0,MN,1580270817,80,45.76,106.27,8.37,8.57
173,Zhigansk,100,RU,1580270819,95,66.77,123.37,-16.74,25.79
174,Kaeo,58,NZ,1580270820,71,-35.1,173.78,75.61,5.99
175,Henties Bay,49,,1580270821,89,-22.12,14.28,64.0,1.99
176,Padang,100,ID,1580270679,91,-0.95,100.35,68.32,0.4
177,Abu Dhabi,0,AE,1580270823,87,24.47,54.37,57.2,2.24
178,Necochea,100,AR,1580270720,99,-38.55,-58.74,64.0,1.99
179,Avanuorri,0,NO,1580270701,72,71.0,24.66,14.0,31.09
180,Kabinda,100,CD,1580270827,93,-6.13,24.48,68.77,3.53
181,Ancud,0,CL,1580270828,75,-41.87,-73.82,46.4,5.82
182,Salisbury,33,GB,1580270830,86,51.07,-1.8,37.53,10.29
183,Ribeira Grande,78,PT,1580270754,94,38.52,-28.7,60.12,19.71
184,Kilindoni,100,TZ,1580270660,80,-7.91,39.67,82.47,11.05
185,Hambantota,75,LK,1580270833,94,6.12,81.12,78.8,3.36
186,Kumul,0,CN,1580270834,78,42.8,93.45,10.53,3.04
187,Urusha,0,RU,1580270836,82,54.05,122.9,3.0,2.26
188,Hasaki,20,JP,1580270837,72,35.73,140.83,59.61,10.29
189,Vestmannaeyjar,0,IS,1580270824,66,63.44,-20.27,34.66,7.29
190,Rancho Palos Verdes,5,US,1580270839,17,33.74,-118.39,58.08,23.04
191,Karaton,40,ID,1580270840,62,-6.34,106.1,89.33,8.05
192,Borovoy,75,RU,1580270841,73,55.43,86.08,23.0,15.66
193,Kiunga,85,PG,1580270843,55,-6.12,141.29,94.01,2.06
194,Viedma,9,AR,1580270844,86,-40.81,-63.0,56.52,4.74
195,Mahuva,0,IN,1580270845,63,21.09,71.76,62.53,10.38
196,Deputatsky,100,RU,1580270846,68,69.3,139.9,-21.23,3.94
197,Davila,40,PH,1580270847,65,18.47,120.58,80.6,9.17
198,Provideniya,2,RU,1580270751,58,64.38,-173.3,-5.8,4.61
199,Westport,90,US,1580270823,74,41.14,-73.36,34.83,8.05
200,Ilulissat,100,GL,1580270560,59,69.22,-51.1,1.4,10.29
201,Nieves,75,PH,1580270852,58,15.33,120.95,86.0,9.17
202,Akdepe,0,TM,1580270854,79,42.06,59.38,26.11,2.24
203,Todos Santos,5,MX,1580270855,45,23.45,-110.22,63.72,6.93
204,Minsk,90,BY,1580270856,100,53.9,27.57,33.8,6.71
205,Sydney Mines,90,CA,1580270857,100,46.24,-60.22,30.24,13.87
206,Muisne,100,EC,1580270858,82,0.6,-80.03,77.67,0.58
207,Geraldton,0,AU,1580270860,57,-28.77,114.6,78.8,13.87
208,Guerrero Negro,0,MX,1580270861,65,27.98,-114.06,63.46,19.69
209,Elko,90,US,1580270862,74,41.0,-115.5,33.3,6.93
210,Stawell,0,AU,1580270863,15,-37.05,142.77,88.43,5.91
211,Bulgan,0,MN,1580270864,76,48.81,103.53,9.09,3.06
212,Darhan,0,MN,1580270815,84,49.49,105.92,4.71,8.23
213,Vryburg,50,ZA,1580270867,23,-26.96,24.73,57.34,3.58
214,Taltal,0,CL,1580270868,90,-25.4,-70.48,62.87,2.46
215,Codrington,0,AU,1580270869,63,-38.27,141.97,68.23,4.43
216,Yerbogachen,100,RU,1580270721,93,61.28,108.01,7.95,4.36
217,Bilma,100,NE,1580270748,8,18.69,12.92,64.15,7.85
218,Jalu,0,LY,1580270677,77,29.03,21.55,52.18,6.44
219,Xai-Xai,0,MZ,1580270874,81,-25.05,33.64,66.58,2.62
220,Burgeo,100,CA,1580270875,82,47.62,-57.62,28.62,17.76
221,Khatanga,98,RU,1580270876,97,71.97,102.5,-12.26,0.56
222,Caravelas,100,BR,1580270877,85,-17.71,-39.25,79.66,11.48
223,Ayr,40,GB,1580270768,93,55.46,-4.63,36.97,12.75
224,Mishkino,0,RU,1580270880,93,55.34,63.92,-13.67,7.05
225,Vidalia,1,US,1580270649,75,32.22,-82.41,39.94,1.92
226,Esil,3,KZ,1580270882,96,51.96,66.4,-11.45,5.12
227,Chara,10,RU,1580270757,61,56.91,118.26,-1.41,1.88
228,Japura,100,ID,1580270735,94,-0.32,102.35,75.22,3.91
229,Bielsk Podlaski,100,PL,1580270886,100,52.77,23.19,35.01,8.88
230,Tete,75,MZ,1580270669,88,-16.16,33.59,77.0,4.7
231,Ouahigouya,100,BF,1580270888,7,13.58,-2.42,70.41,10.45
232,Khovd,0,MN,1580270740,60,48.01,91.64,9.19,1.92
233,Sijunjung,100,ID,1580270890,95,-0.69,100.95,70.54,2.53
234,Zhigalovo,4,RU,1580270892,93,54.81,105.16,7.47,2.82
235,Alice Springs,75,AU,1580270893,38,-23.7,133.88,89.6,19.46
236,Wattegama,75,LK,1580270894,94,6.8,81.48,78.8,3.36
237,Puerto del Rosario,36,ES,1580270895,77,28.5,-13.86,61.59,8.05
238,Abaca,82,PH,1580270896,72,9.92,124.51,82.92,5.82
239,La Libertad,21,EC,1580270897,88,-2.23,-80.9,77.0,6.93
240,Kiryat Gat,75,IL,1580270898,93,31.61,34.76,50.43,5.82
241,Banjar,20,ID,1580270900,70,-8.19,114.97,89.6,6.93
242,Sur,0,OM,1580270901,52,22.57,59.53,62.26,8.16
243,Pemangkat,100,ID,1580270826,72,1.17,108.97,85.33,9.06
244,Dongargaon,7,IN,1580270903,58,20.97,80.85,70.81,4.56
245,Kamina,100,CD,1580270905,95,-8.74,24.99,63.86,3.4
246,Ayagoz,21,KZ,1580270906,92,47.97,80.44,-0.8,1.01
247,High Level,5,CA,1580270902,84,58.52,-117.14,6.8,3.58
248,Kruisfontein,89,ZA,1580270754,78,-34.0,24.73,65.41,8.19
249,Okha,0,RU,1580270909,86,53.57,142.95,7.47,9.48
250,Bokoro,0,TD,1580270910,11,12.38,17.06,61.38,9.48
251,Naze,75,JP,1580270912,55,28.37,129.48,63.57,12.75
252,Sakaiminato,75,JP,1580270913,66,35.55,133.23,52.77,12.75
253,Batagay,6,RU,1580270914,73,67.63,134.63,-26.46,4.07
254,Thinadhoo,28,MV,1580270915,76,0.53,72.93,80.71,15.5
255,Vardo,40,NO,1580270699,84,70.37,31.11,3.2,4.7
256,Trairi,67,BR,1580270917,89,-3.28,-39.27,74.16,1.7
257,Norman Wells,20,CA,1580270919,68,65.28,-126.83,-20.2,6.93
258,Derbent,92,RU,1580270920,80,42.07,48.29,44.47,0.96
259,Poso,23,ID,1580270921,75,-1.4,120.75,76.14,2.75
260,Evensk,100,RU,1580270875,94,61.95,159.23,16.11,2.59
261,Talcahuano,0,CL,1580270923,62,-36.72,-73.12,59.0,14.99
262,Poum,0,NC,1580270920,79,-20.23,164.02,79.66,19.77
263,Zaranj,0,AF,1580270926,60,30.97,61.88,39.2,6.93
264,Omsukchan,100,RU,1580270928,98,62.53,155.8,-9.87,6.93
265,Paita,6,PE,1580270929,66,-5.09,-81.11,78.03,6.13
266,Yumen,0,CN,1580270930,32,40.28,97.2,26.4,11.25
267,Sirsi,67,IN,1580270931,76,14.62,74.85,68.77,2.39
268,Sao Filipe,11,CV,1580270932,67,14.9,-24.5,71.13,18.39
269,Coquimbo,90,CL,1580270934,82,-29.95,-71.34,64.4,4.7
270,Grand-Lahou,0,CI,1580270935,81,5.14,-5.02,81.43,6.38
271,Northam,19,GB,1580270936,75,51.03,-4.22,40.82,11.99
272,Beloha,92,MG,1580270937,94,-25.17,45.05,70.0,6.6
273,Riyadh,35,SA,1580270766,56,24.69,46.72,42.8,4.34
274,Nagato,40,JP,1580270940,47,34.38,131.2,54.39,12.75
275,Aklavik,90,CA,1580270941,74,68.22,-135.01,-23.8,2.24
276,Roebourne,11,AU,1580270942,19,-20.78,117.13,103.91,14.65
277,Rapid City,1,US,1580270859,68,44.08,-103.23,28.06,4.7
278,Awjilah,0,LY,1580270944,77,29.11,21.29,52.18,6.44
279,Savannah Bight,4,HN,1580270946,85,16.45,-85.85,79.36,13.96
280,Nadvoitsy,100,RU,1580270947,93,63.87,34.32,12.9,6.76
281,Maceio,13,BR,1580270706,83,-9.67,-35.74,77.0,2.24
282,Kachug,0,RU,1580270949,90,53.96,105.88,7.79,1.9
283,Husavik,90,IS,1580270950,92,66.04,-17.34,23.0,3.36
284,Dudinka,100,RU,1580270952,78,69.41,86.18,8.6,6.71
285,Laje,18,BR,1580270953,94,-10.18,-40.97,68.09,5.41
286,Visnes,100,NO,1580270954,93,59.36,5.22,36.23,3.36
287,Katsuura,20,JP,1580270945,63,35.13,140.3,63.91,13.87
288,Fougeres,75,FR,1580270956,93,48.35,-1.2,43.63,10.29
289,Hong Kong,0,HK,1580270897,40,22.29,114.16,57.0,8.05
290,Svetlogorsk,100,BY,1580270860,93,52.63,29.73,32.38,9.89
291,Marigot,20,MF,1580270960,83,18.07,-63.08,76.62,4.7
292,Los Llanos de Aridane,100,ES,1580270961,72,28.66,-17.92,58.95,6.93
293,Lompoc,1,US,1580270894,67,34.64,-120.46,55.17,5.82
294,Acapulco de Juarez,5,MX,1580270867,74,16.86,-99.89,78.8,5.82
295,Oksfjord,100,NO,1580270964,72,70.24,22.35,11.35,31.09
296,Port Elizabeth,75,ZA,1580270966,77,-33.92,25.57,68.0,13.87
297,Ondangwa,15,,1580270967,74,-17.92,15.95,78.8,2.24
298,Plettenberg Bay,100,ZA,1580270788,80,-34.05,23.37,67.59,4.61
299,Tarakan,64,ID,1580270940,77,3.3,117.63,83.26,6.73
300,Huanren,100,CN,1580270970,85,41.26,125.37,19.9,5.23
301,Mergen,0,CN,1580270971,81,49.18,125.22,8.17,8.39
302,Nador,96,MA,1580270973,76,35.17,-2.93,47.25,2.93
303,Camocim,100,BR,1580270974,88,-2.9,-40.84,74.98,3.69
304,Borujerd,100,IR,1580270975,54,33.9,48.75,25.21,5.5
305,Tocopilla,0,CL,1580270976,61,-22.09,-70.2,60.89,2.13
306,Ushtobe,62,KZ,1580270978,74,45.25,77.98,18.84,3.6
307,Nioki,78,CD,1580270979,75,-2.72,17.68,75.36,1.99
308,Alofi,75,NU,1580270980,74,-19.06,-169.92,86.0,5.82
309,Mulege,0,MX,1580270981,55,26.88,-111.98,63.95,10.49
310,Severo-Kuril'sk,100,RU,1580270750,85,50.68,156.12,25.9,3.33
311,Yarqa,40,JO,1580270983,87,31.98,35.69,45.36,13.87
312,Mangrol,0,IN,1580270984,66,21.12,70.12,65.43,9.57
313,The Valley,20,AI,1580270984,83,18.22,-63.06,77.27,4.7
314,Tautira,75,PF,1580270987,78,-17.73,-149.15,82.22,14.99
315,Pechora,69,RU,1580270988,97,65.15,57.22,-17.82,6.15
316,Korla,0,CN,1580270968,83,41.76,86.15,30.0,2.46
317,Lillooet,40,CA,1580270990,93,50.69,-121.94,32.23,6.4
318,Harper,61,LR,1580270991,91,4.38,-7.72,76.32,1.25
319,Provincia di Ancona,100,IT,1580270993,66,43.55,13.17,50.59,8.05
320,Grand Gaube,75,MU,1580270994,94,-20.01,57.66,74.19,5.91
321,Lunel,100,FR,1580270995,81,43.68,4.14,46.69,8.05
322,Dunedin,100,NZ,1580270901,71,-45.87,170.5,68.0,1.99
323,Ojinaga,1,MX,1580270997,34,29.57,-104.42,46.13,8.05
324,Genhe,0,CN,1580270781,74,50.78,121.52,10.94,1.45
325,Souillac,75,MU,1580270824,94,-20.52,57.52,73.26,1.9
326,Bubaque,42,GW,1580270859,75,11.28,-15.83,76.98,9.51
327,Araouane,74,ML,1580270962,22,18.9,-3.53,71.85,14.27
328,Aldan,0,RU,1580270904,66,58.6,125.39,8.64,7.43
329,Rayong,20,TH,1580271005,55,12.83,101.43,88.7,4.7
330,Piranshahr,100,IR,1580271006,59,36.7,45.14,21.61,2.04
331,Namatanai,0,PG,1580270708,72,-3.67,152.43,86.27,15.82
332,Colmenar Viejo,75,ES,1580271008,100,40.66,-3.77,49.71,8.05
333,Camargo,0,MX,1580271010,26,27.67,-105.17,53.53,9.66
334,Altay,100,CN,1580271011,96,47.87,88.12,10.51,2.71
335,Gravdal,40,NO,1580271012,74,68.12,13.5,28.4,26.4
336,Sakleshpur,0,IN,1580271013,72,12.97,75.78,68.77,2.59
337,Karakol,1,KG,1580271014,33,42.49,78.39,12.09,4.18
338,Vila Velha,75,BR,1580271015,94,-20.33,-40.29,78.89,8.05
339,Karlskrona,100,SE,1580271017,100,56.16,15.59,35.6,2.24
340,Talnakh,100,RU,1580270829,78,69.49,88.4,8.6,6.71
341,Beringovskiy,96,RU,1580270921,95,63.05,179.32,0.23,3.24
342,Segezha,100,RU,1580271020,93,63.74,34.32,15.35,9.46
343,Turan,75,VN,1580270853,78,16.07,108.22,69.33,6.93
344,Asau,75,RO,1580271022,100,46.43,26.4,36.66,10.29
345,Umm Lajj,0,SA,1580271024,45,25.02,37.27,58.1,7.07
346,Balikpapan,50,ID,1580271025,77,-1.27,116.83,83.28,11.68
347,Kangaatsiaq,100,GL,1580271026,90,68.31,-53.46,11.48,20.11
348,Sorland,80,NO,1580271027,79,67.67,12.69,31.23,16.42
349,Tadine,100,NC,1580271028,59,-21.55,167.88,81.95,9.17
350,Machala,40,EC,1580271030,33,-3.27,-79.97,89.6,3.36
351,Wajima,75,JP,1580271031,100,37.4,136.9,50.0,9.17
352,Lata,40,PT,1580271032,93,40.16,-8.33,55.53,5.82
353,Praia da Vitoria,75,PT,1580271033,93,38.73,-27.07,62.6,26.87
354,Dongsheng,64,CN,1580271034,74,39.82,109.98,22.21,9.31
355,Kavaratti,20,IN,1580270776,69,10.57,72.64,82.4,9.89
356,Angoche,100,MZ,1580271037,97,-16.23,39.91,72.9,4.41
357,Governador Dix-Sept Rosado,0,BR,1580271038,72,-5.46,-37.52,79.93,7.4
358,Oxapampa,100,PE,1580271039,96,-10.58,-75.4,55.31,1.74
359,Nanga Eboko,98,CM,1580270824,60,4.68,12.37,62.56,0.83
360,Honningsvag,0,NO,1580271041,66,70.98,25.97,21.74,28.77
361,Jasper,90,US,1580271002,93,37.2,-94.35,33.62,6.93
362,Athabasca,64,CA,1580271044,86,54.72,-113.29,16.2,4.88
363,Ixtapa,40,MX,1580271045,73,20.7,-105.2,72.61,1.16
364,Nortelandia,100,BR,1580271046,93,-14.45,-56.8,72.52,8.28
365,Osoyoos,90,CA,1580271047,86,49.03,-119.45,33.48,3.36
366,Mahina,75,PF,1580271003,78,-17.51,-149.49,82.22,14.99
367,Krasnosel'kup,98,RU,1580271050,97,65.7,82.47,-5.85,10.92
368,Erdemli,80,TR,1580271051,79,36.6,34.31,54.09,18.5
369,Touros,40,BR,1580270815,88,-5.2,-35.46,78.8,2.24
370,Madera,75,US,1580271053,71,37.17,-119.83,47.61,7.94
371,Galesong,20,ID,1580271054,62,-5.32,119.37,89.6,6.93
372,Port Hedland,83,AU,1580270964,59,-20.32,118.57,95.0,16.11
373,Mersing,100,MY,1580270988,78,2.43,103.84,81.19,13.4
374,Nueva Loja,31,EC,1580270909,82,0.08,-76.88,74.08,2.53
375,Whitianga,52,NZ,1580271059,77,-36.83,175.7,73.63,3.8
376,Buala,100,SB,1580270964,69,-8.14,159.59,86.74,7.54
377,Ostrovnoy,18,RU,1580271061,93,68.05,39.51,3.87,4.25
378,Gobabis,0,,1580270936,20,-22.45,18.97,67.59,4.03
379,Ledyard,90,US,1580270874,55,41.44,-72.01,34.3,10.29
380,Aki,20,JP,1580271065,44,33.5,133.9,59.0,16.11
381,La Ligua,40,CL,1580271066,88,-32.45,-71.23,62.6,4.7
382,Auki,100,SB,1580271067,71,-8.77,160.7,85.28,4.74
383,Kismayo,33,SO,1580270854,79,-0.36,42.55,80.69,20.54
384,Chifeng,99,CN,1580270989,58,42.27,118.96,19.96,14.05
385,Ellisras,0,ZA,1580271071,82,-23.66,27.74,64.22,4.76
386,Nikolayevsk-on-Amure,0,RU,1580271072,82,53.14,140.73,8.51,4.14
387,Ocos,40,GT,1580271073,94,14.51,-92.19,73.4,4.21
388,Nueva Gerona,0,CU,1580271075,78,21.88,-82.8,76.77,6.46
389,Bage,65,BR,1580271076,83,-31.33,-54.11,67.89,9.17
390,Santiago del Estero,10,AR,1580271064,49,-27.8,-64.26,80.46,10.11
391,Krasnovishersk,100,RU,1580271078,98,60.41,57.08,-16.73,4.61
392,Mayumba,100,GA,1580271080,81,-3.43,10.66,81.95,10.4
393,Varhaug,90,NO,1580271081,93,58.61,5.65,34.45,6.93
394,Sungaipenuh,100,ID,1580270802,95,-2.08,101.38,61.18,5.06
395,Kahului,40,US,1580270930,51,20.89,-156.47,74.1,13.87
396,Wladyslawowo,75,PL,1580271084,100,54.79,18.4,35.49,14.99
397,Luderitz,0,,1580271086,78,-26.65,15.16,65.01,27.81
398,Luanda,75,AO,1580271087,83,-8.84,13.23,80.6,5.82
399,Vila Franca do Campo,75,PT,1580270867,82,37.72,-25.43,64.4,25.28
400,Farah,0,AF,1580271006,74,32.5,62.5,34.41,1.86
401,Road Town,20,VG,1580271090,74,18.42,-64.62,77.92,6.93
402,Kalmunai,65,LK,1580271092,72,7.42,81.82,79.61,11.61
403,Muros,75,ES,1580271094,100,42.78,-9.06,55.67,10.29
404,Belaya Gora,94,RU,1580271096,84,68.53,146.42,-23.37,6.42
405,Kamenskiy,100,RU,1580271097,97,50.89,45.49,30.27,12.17
406,Georgiyevskoye,100,RU,1580271098,93,58.73,45.02,6.73,8.14
407,Saint-Francois,100,FR,1580271002,75,46.42,3.91,44.28,9.17
408,Poyarkovo,9,RU,1580271101,91,49.6,128.68,0.18,8.14
409,Bandarbeyla,1,SO,1580271104,72,9.49,50.81,73.63,22.44
410,Urman,98,RU,1580271105,97,54.88,56.87,-5.57,2.37
411,Guia de Isora,100,ES,1580271106,46,28.21,-16.78,57.09,3.36
412,Anantapur,50,IN,1580271107,57,14.68,77.6,76.95,5.14
413,Oranjemund,34,,1580271108,94,-28.55,16.43,60.17,8.84
414,Pisco,90,PE,1580270943,73,-13.7,-76.22,76.5,4.7
415,La Orilla,56,MX,1580271111,71,17.98,-102.23,70.57,1.74
416,Myshkin,100,RU,1580271112,91,57.79,38.45,19.51,7.38
417,San Rafael,100,AR,1580271113,65,-34.62,-68.33,69.93,7.25
418,Aden,49,YE,1580271115,70,12.78,45.04,71.71,13.22
419,Adrar,0,MR,1580270906,26,20.5,-10.07,68.59,11.95
420,Zhuhai,0,CN,1580271117,58,22.28,113.57,56.97,19.46
421,Carutapera,90,BR,1580271118,81,-1.2,-46.02,81.91,12.86
422,Ulagan,100,RU,1580271120,90,50.63,87.96,2.57,6.2
423,Santa Barbara,1,US,1580271121,31,34.42,-119.7,57.18,12.75
424,Mogadishu,0,SO,1580270985,80,2.04,45.34,78.22,25.34
425,Voh,10,NC,1580271125,77,-20.97,164.7,80.19,13.91
426,Kamenka,100,RU,1580271128,97,51.32,42.77,34.0,5.01
427,San Patricio,0,MX,1580271130,63,19.22,-104.7,76.05,4.29
428,Sistranda,75,NO,1580271131,69,63.73,8.83,36.75,17.22
429,Baruun-Urt,90,MN,1580271132,88,46.68,113.28,2.77,1.88
430,Poretskoye,100,RU,1580271134,92,55.2,46.33,18.1,11.7
431,Chalus,22,IR,1580271135,34,36.66,51.42,35.6,5.46
432,Mbandaka,63,CD,1580271136,46,0.05,18.26,72.27,2.13
433,Torbay,90,CA,1580270851,100,47.67,-52.73,29.28,5.82
434,Olafsvik,0,IS,1580270863,76,64.89,-23.71,30.63,14.2
435,Rawson,0,AR,1580271139,59,-43.3,-65.1,59.77,17.94
436,Skibbereen,20,IE,1580271141,86,51.55,-9.27,39.2,11.41
437,Port Hardy,90,CA,1580271142,81,50.7,-127.42,44.6,21.92
438,Matamoros,5,MX,1580271143,16,25.53,-103.25,64.4,9.17
439,Champerico,0,GT,1580271144,78,14.3,-91.92,75.02,4.21
440,Abeokuta,67,NG,1580271146,94,7.15,3.35,75.2,4.7
441,Caranavi,100,BO,1580271147,96,-15.82,-67.55,60.98,2.68
442,Nyrob,99,RU,1580271148,99,60.73,56.72,-20.09,4.59
443,Egvekinot,100,RU,1580271149,81,66.32,-179.17,-5.96,0.74
444,Beidao,51,CN,1580271151,38,34.57,105.89,36.95,1.52
445,Waipawa,20,NZ,1580271152,60,-41.41,175.52,71.22,14.99
446,Bareilly,23,IN,1580271153,87,28.35,79.42,57.45,7.14
447,Blackwater,100,AU,1580271154,55,-23.58,148.88,87.75,12.26
448,Murdochville,0,CA,1580271155,94,48.96,-65.5,4.08,2.73
449,Pahrump,1,US,1580271157,39,36.21,-115.98,47.57,3.36
450,Puerto Baquerizo Moreno,16,EC,1580271158,87,-0.9,-89.6,76.84,9.69
451,Francistown,0,BW,1580271159,100,-21.17,27.51,62.6,1.12
452,Zaysan,97,KZ,1580271160,79,47.47,84.87,15.26,3.36
453,Rio Gallegos,87,AR,1580271161,61,-51.62,-69.22,46.4,21.92
454,Minden,75,DE,1580271162,80,52.28,8.92,39.31,16.11
455,Lavrentiya,0,RU,1580271164,67,65.58,-171.0,-12.53,8.75
456,Pitimbu,40,BR,1580271165,88,-7.47,-34.81,78.8,3.36
457,Mossamedes,100,AO,1580271166,77,-15.2,12.15,75.15,7.81
458,Gamba,99,GA,1580271167,89,-2.65,10.0,78.04,1.74
459,Roald,100,NO,1580271005,64,62.58,6.13,33.8,4.7
460,Ballina,50,AU,1580271169,62,-28.87,153.57,92.21,9.17
461,Pingliang,0,CN,1580271171,27,35.54,106.69,30.36,1.81
462,Saldanha,92,ZA,1580271172,88,-33.01,17.94,64.4,9.17
463,Nigde,86,TR,1580271173,91,37.83,34.75,23.86,4.12
464,Mlonggo,20,ID,1580271174,62,-6.53,110.7,90.37,10.29
465,Makakilo City,20,US,1580271175,61,21.35,-158.09,76.73,9.17
466,Mizoch,79,UA,1580271176,85,50.4,26.15,35.94,3.11
467,Elliot,17,ZA,1580271178,72,-31.33,27.85,48.92,1.52
468,Rudbar,0,AF,1580271179,61,30.15,62.6,39.88,2.91
469,Matay,0,EG,1580271180,73,28.42,30.78,45.32,5.17
470,Tiznit,0,MA,1580271181,30,29.58,-9.5,54.82,6.71
471,Nogliki,68,RU,1580271182,81,51.83,143.17,8.08,5.48
472,Mayya,0,RU,1580271184,65,61.73,130.28,-34.6,4.47
473,Abha,40,SA,1580271185,87,18.22,42.51,52.65,12.75
474,Huambo,100,AO,1580271186,96,-12.78,15.74,59.59,0.92
475,Biak,46,ID,1580271187,81,-0.91,122.88,82.69,10.31
476,Agadez,100,NE,1580271188,15,19.75,10.25,67.23,7.2
477,Saint-Pierre,18,RE,1580271189,54,-21.34,55.48,77.31,3.36
478,Askiz,100,RU,1580271124,82,53.13,90.53,20.08,7.02
479,Ambilobe,100,MG,1580271192,92,-13.2,49.05,75.24,2.8
480,Polson,90,US,1580271193,93,47.69,-114.16,31.84,3.36
481,Brigantine,90,US,1580271194,64,39.41,-74.36,38.16,5.82
482,Coronini,100,RS,1580271195,93,44.68,21.69,39.09,6.93
483,Lagoa,12,PT,1580270997,91,39.05,-27.98,62.64,22.48
484,Grindavik,0,IS,1580271198,86,63.84,-22.43,27.54,8.05
485,Cao Bang,100,VN,1580270911,69,22.67,106.25,51.76,0.96
486,Mana,40,GF,1580271200,91,5.66,-53.78,75.76,3.02
487,Tallahassee,20,US,1580271013,93,30.44,-84.28,42.48,2.19
488,Verkhnyaya Balkariya,90,RU,1580271202,100,43.13,43.46,30.15,4.47
489,Salalah,0,OM,1580271108,22,17.02,54.09,64.4,14.99
490,Bulancak,75,TR,1580271205,87,40.94,38.23,50.0,8.05
491,Hay River,90,CA,1580271206,84,60.82,-115.8,-0.4,4.7
492,Victor Harbor,0,AU,1580270947,25,-35.57,138.62,91.04,6.93
493,Ekuvukeni,86,ZA,1580271208,82,-28.47,30.16,55.69,2.21
494,Talaya,100,RU,1580271209,94,61.38,152.75,-14.08,4.7
495,Olhao,75,PT,1580271211,93,37.03,-7.84,55.4,6.93
496,Baiao,84,BR,1580271212,98,-2.79,-49.67,72.73,2.24
497,Bani Walid,0,LY,1580270946,58,31.76,13.99,52.12,6.49
498,Beyneu,95,KZ,1580271214,86,45.32,55.2,36.14,8.37
499,Mayor Pablo Lagerenza,43,PY,1580271215,58,-19.93,-60.77,80.76,5.21
500,Pangody,100,RU,1580271216,95,65.85,74.49,-6.74,15.73
501,Andapa,99,MG,1580271218,98,-14.65,49.65,66.31,0.74
502,Churapcha,0,RU,1580271219,95,62.0,132.43,-23.96,4.99
503,Nileshwar,20,IN,1580271220,83,12.25,75.1,77.0,5.82
504,Zharkent,82,KZ,1580271221,90,44.16,80.0,15.26,7.05
505,Finote Selam,65,ET,1580271222,39,10.7,37.27,52.84,2.77
506,Indianola,90,US,1580271223,92,41.36,-93.56,19.63,5.82
507,Bolitoc,83,PH,1580271225,53,15.74,119.88,79.86,7.7
508,Dhadar,0,IN,1580271226,56,28.33,75.06,56.7,4.21
509,Vanavara,100,RU,1580271142,95,60.34,102.28,13.48,2.77
510,Bad Orb,20,DE,1580271228,93,50.23,9.35,35.56,10.29
511,Griffith,90,US,1580271229,86,41.53,-87.42,30.31,3.53
512,Lang Suan,20,TH,1580271231,65,9.95,99.08,82.4,5.82
513,Severnyy,90,RU,1580271232,100,50.68,36.55,33.8,6.71
514,Haines Junction,55,CA,1580270959,94,60.75,-137.51,7.07,4.88
515,Verkhnevilyuysk,90,RU,1580271172,89,63.45,120.32,3.51,5.59
516,Townsville,75,AU,1580271235,100,-19.25,146.8,77.0,8.05
517,Batticaloa,97,LK,1580271236,76,7.71,81.69,76.33,1.66
518,Manaure,66,CO,1580271238,84,11.78,-72.44,78.87,17.69
519,Udachny,0,RU,1580271239,77,66.42,112.4,-0.4,4.47
520,Arrondissement de Langres,100,FR,1580271240,86,47.83,5.33,40.33,8.05
521,Jacmel,85,HT,1580271241,73,18.23,-72.53,77.0,2.24
522,Matara,53,LK,1580271242,74,5.95,80.54,75.18,7.49
523,Ylivieska,100,FI,1580271243,92,64.08,24.67,22.64,4.0
524,Amuntai,85,ID,1580271245,74,-2.42,115.25,86.09,2.42
525,Saint-Augustin,0,CA,1580271246,88,51.23,-58.65,10.85,9.64
526,Sinnamary,96,GF,1580271247,84,5.38,-52.95,80.24,18.59
527,Manaira,62,BR,1580271248,80,-7.71,-38.15,74.32,4.99
528,Tigil,54,RU,1580271249,89,57.8,158.67,17.35,7.09
529,'Ahuimanu,75,US,1580271250,74,21.44,-157.84,76.59,10.29
530,Male,75,MV,1580271252,70,4.17,73.51,84.2,12.75
